timestamp(unix),attitude_roll(radians),attitude_pitch(radians),attitude_yaw(radians),rotation_rate_x(radians/s),rotation_rate_y(radians/s),rotation_rate_z(radians/s),gravity_x(G),gravity_y(G),gravity_z(G),user_acc_x(G),user_acc_y(G),user_acc_z(G),magnetic_field_x(microteslas),magnetic_field_y(microteslas),magnetic_field_z(microteslas),latitude(degree),longitude(degree),altitude(meter),speed(m/s),course(degree),timestamp(unix)
1478365205.75,0.155843,0.437827,1.033598,-0.008134,-0.061651,0.019549,0.140572,-0.423973,-0.894699,0.006583,-0.005501,-0.005203,17.093628,-20.391718,-24.625900,,,,,,
1478365205.77,0.154285,0.438066,1.034139,-0.018734,-0.067751,0.025433,0.139163,-0.424189,-0.894817,0.001676,-0.004873,0.003292,17.093628,-20.391718,-24.625900,,,,,,
1478365205.79,0.152790,0.437719,1.034879,0.011900,-0.043288,0.027322,0.137847,-0.423874,-0.895170,0.000001,0.003312,-0.002673,17.039280,-20.407927,-24.650127,,,,,,
,,,,,,,,,,,,,,,,37.354364,-122.024524,45.243744,0.000000,-1.000000,1478365013.00
,,,,,,,,,,,,,,,,37.354364,-122.024524,45.243744,0.000000,-1.000000,1478365005.00
,,,,,,,,,,,,,,,,37.354364,-122.024524,45.243744,0.000000,-1.000000,1478365013.00
1478365205.81,0.151627,0.437965,1.035531,0.002476,-0.048146,0.025888,0.136790,-0.424098,-0.895226,-0.002040,0.000056,-0.007179,17.009188,-20.406975,-24.671684,,,,,,
1478365205.84,0.150704,0.438145,1.036026,0.006022,-0.024639,0.019801,0.135953,-0.424260,-0.895277,0.000308,-0.003947,0.002851,16.959942,-20.425962,-24.689873,,,,,,
1478365205.86,0.150154,0.438648,1.036661,0.044917,0.025749,0.021828,0.135428,-0.424716,-0.895140,-0.006689,-0.001050,-0.008440,16.959942,-20.425962,-24.689873,,,,,,
1478365205.88,0.151060,0.440586,1.037120,0.011964,0.053326,0.018547,0.136115,-0.426469,-0.894202,-0.002646,0.001848,0.029501,16.933233,-20.489208,-24.655773,,,,,,
1478365205.90,0.152454,0.440109,1.037695,-0.048074,0.082395,0.020744,0.137392,-0.426038,-0.894212,-0.003924,0.001416,0.029512,16.933233,-20.489208,-24.655773,,,,,,
1478365205.92,0.155295,0.438186,1.038412,-0.117489,0.180923,0.015228,0.140059,-0.424298,-0.894626,-0.011244,-0.013187,0.036960,16.982933,-20.497318,-24.614815,,,,,,
1478365205.94,0.160583,0.436799,1.038751,-0.158684,0.199875,0.031351,0.144881,-0.423041,-0.894453,0.017350,-0.016152,0.021803,17.041748,-20.461319,-24.604113,,,,,,
1478365205.96,0.166903,0.433780,1.040314,-0.179817,0.251936,0.110287,0.150743,-0.420304,-0.894774,0.031020,-0.011016,0.001327,17.219360,-20.394032,-24.536222,,,,,,
1478365205.98,0.170773,0.430844,1.044381,-0.156239,0.261494,0.167115,0.154414,-0.417638,-0.895396,0.031698,-0.010875,-0.010915,17.219360,-20.394032,-24.536222,,,,,,
1478365206.01,0.173798,0.428467,1.049757,-0.139750,0.233965,0.226304,0.157292,-0.415477,-0.895901,0.026011,-0.001851,-0.021717,17.431538,-20.329693,-24.439606,,,,,,
1478365206.03,0.175620,0.426591,1.056350,-0.129150,0.205255,0.285358,0.159061,-0.413770,-0.896379,0.019864,-0.001468,-0.025985,17.431538,-20.329693,-24.439606,,,,,,
1478365206.05,0.177267,0.426339,1.063425,-0.016093,0.215286,0.286768,0.160555,-0.413541,-0.896218,0.014539,0.016568,-0.062645,17.431770,-20.372139,-24.404068,,,,,,
1478365206.07,0.178154,0.428011,1.069860,0.106365,0.238979,0.235765,0.161228,-0.415062,-0.895393,-0.016864,-0.000511,-0.034157,17.418299,-20.435406,-24.360754,,,,,,
1478365206.09,0.182282,0.431420,1.074454,0.131137,0.309346,0.225180,0.164665,-0.418161,-0.893324,-0.020302,0.002588,-0.036227,17.400974,-20.626598,-24.211540,,,,,,
1478365206.11,0.187003,0.435606,1.079046,0.166463,0.301554,0.232145,0.168554,-0.421960,-0.890808,-0.013616,0.010857,-0.041366,17.400974,-20.626598,-24.211540,,,,,,
,,,,,,,,,,,,,,,,37.354889,-122.025461,45.243744,-1.000000,-1.000000,1478365300.86
1478365206.13,0.191276,0.440931,1.083063,0.235900,0.261327,0.191031,0.171928,-0.426782,-0.887862,-0.028023,0.009545,-0.044328,17.523043,-21.006891,-23.792913,,,,,,
1478365206.16,0.194614,0.447060,1.086165,0.257038,0.183142,0.170893,0.174382,-0.432316,-0.884700,-0.018299,0.038853,-0.020574,17.523043,-21.006891,-23.792913,,,,,,
1478365206.18,0.196312,0.453020,1.088352,0.264022,0.087828,0.117418,0.175379,-0.437683,-0.881859,-0.020746,0.044022,-0.022453,17.564196,-21.299496,-23.500631,,,,,,
,,,,,,,,,,,,,,,,37.355283,-122.026165,45.243744,-1.000000,-1.000000,1478365300.92
1478365206.20,0.197221,0.458998,1.088695,0.255719,0.037290,0.042681,0.175664,-0.443050,-0.879118,-0.023625,0.023632,0.007475,17.551762,-21.560894,-23.270426,,,,,,
1478365206.22,0.197925,0.463299,1.088355,0.174433,0.002229,0.017596,0.175906,-0.446902,-0.877118,-0.018161,0.013018,0.030805,17.552906,-21.657719,-23.179472,,,,,,
1478365206.24,0.195955,0.466903,1.088093,0.142577,-0.071695,-0.014808,0.173864,-0.450123,-0.875877,-0.014531,0.009281,0.018242,17.552906,-21.657719,-23.179472,,,,,,
1478365206.26,0.194533,0.470178,1.086985,0.174355,-0.098013,-0.015229,0.172332,-0.453045,-0.874673,-0.002059,0.008495,0.018380,17.467131,-21.849176,-23.064301,,,,,,
1478365206.28,0.193304,0.473436,1.085183,0.159027,-0.097750,-0.069436,0.170972,-0.455947,-0.873431,-0.000699,0.011397,0.017138,17.467131,-21.849176,-23.064301,,,,,,
1478365206.31,0.192999,0.476427,1.081811,0.162544,-0.079042,-0.150166,0.170444,-0.458607,-0.872140,-0.005481,0.014699,0.013497,17.427490,-21.946684,-23.001625,,,,,,
1478365206.33,0.194295,0.478480,1.076885,0.110756,-0.011551,-0.201705,0.171392,-0.460431,-0.870993,-0.001714,-0.010532,0.018683,17.481096,-21.975651,-22.933191,,,,,,
1478365206.35,0.200644,0.480326,1.069367,0.076638,0.073154,-0.276121,0.176749,-0.462068,-0.869053,0.022897,-0.021254,-0.012432,17.566204,-21.949017,-22.893631,,,,,,
1478365206.37,0.205049,0.480388,1.062673,0.044842,0.053583,-0.242559,0.180569,-0.462123,-0.868238,0.066654,-0.029561,-0.035342,17.566204,-21.949017,-22.893631,,,,,,
1478365206.39,0.208379,0.479730,1.058776,-0.019883,0.060183,-0.131503,0.183522,-0.461540,-0.867929,0.080424,-0.063515,-0.052817,17.950737,-21.811840,-22.725842,,,,,,
1478365206.41,0.209710,0.478015,1.057074,-0.075205,0.038203,-0.018941,0.184842,-0.460017,-0.868457,0.089236,-0.077031,-0.075406,17.950737,-21.811840,-22.725842,,,,,,
1478365206.43,0.209271,0.478295,1.059491,-0.033977,0.030267,0.029772,0.184434,-0.460266,-0.868412,0.089706,-0.052429,-0.157726,18.020895,-21.737724,-22.741325,,,,,,
1478365206.46,0.208234,0.474339,1.057948,-0.171931,-0.174960,-0.079491,0.183908,-0.456750,-0.870377,0.098410,-0.036505,-0.154861,18.013454,-21.675735,-22.806295,,,,,,
1478365206.48,0.202062,0.472947,1.058157,-0.014224,-0.359979,0.009060,0.178660,-0.455511,-0.872118,0.103658,-0.037744,-0.153120,17.948105,-21.619678,-22.910789,,,,,,
1478365206.50,0.190625,0.475482,1.058208,0.197577,-0.637089,0.057472,0.168455,-0.457767,-0.872968,0.065645,0.001728,-0.132495,17.948105,-21.619678,-22.910789,,,,,,
1478365206.52,0.174577,0.481667,1.059312,0.307040,-0.749739,0.114136,0.153930,-0.463257,-0.872753,-0.007354,0.050644,0.026028,17.290085,-21.804377,-23.239435,,,,,,
1478365206.54,0.159060,0.488244,1.061075,0.274156,-0.623124,0.126549,0.139883,-0.469075,-0.872010,-0.027960,0.051763,0.090317,17.290085,-21.804377,-23.239435,,,,,,
1478365206.56,0.149016,0.494434,1.062660,0.280245,-0.306099,0.100300,0.130684,-0.474533,-0.870483,-0.040184,0.062332,0.119750,16.700073,-22.087856,-23.402637,,,,,,
,,,,,,,,,,,,,,,,37.355579,-122.026693,45.243744,-1.000000,-1.000000,1478365301.29
1478365206.58,0.147338,0.500386,1.063479,0.280480,0.075428,0.050521,0.128807,-0.479765,-0.867891,-0.071587,0.063123,0.106798,16.444891,-22.341732,-23.342276,,,,,,
1478365206.61,0.152196,0.507397,1.063086,0.341835,0.258118,0.045444,0.132508,-0.485904,-0.863909,-0.077897,0.037784,0.060458,16.487400,-22.465433,-23.193083,,,,,,
1478365206.63,0.157410,0.514963,1.063177,0.332376,0.191303,0.062500,0.136431,-0.492502,-0.859551,-0.052752,0.025995,0.042611,16.487400,-22.465433,-23.193083,,,,,,
,,,,,,,,,,,,,,,,37.355802,-122.027089,45.243744,-1.000000,-1.000000,1478365301.33
1478365206.65,0.159583,0.520896,1.063992,0.212187,0.072333,0.077070,0.137832,-0.497658,-0.856352,-0.052001,0.019142,0.022322,16.633068,-22.746590,-22.811901,,,,,,
1478365206.67,0.159550,0.525190,1.064542,0.194448,-0.011590,0.021766,0.137463,-0.501377,-0.854239,-0.051632,0.022861,0.020209,16.643114,-22.964125,-22.585503,,,,,,
1478365206.69,0.157679,0.529025,1.064112,0.176695,-0.141431,0.014290,0.135561,-0.504692,-0.852590,-0.070253,0.038780,0.027150,16.626556,-23.040932,-22.519375,,,,,,
1478365206.71,0.154808,0.531444,1.062797,0.069486,-0.169932,-0.065266,0.132924,-0.506779,-0.851767,-0.071568,0.038105,0.089804,16.530836,-23.150993,-22.476925,,,,,,
1478365206.73,0.153566,0.530375,1.060141,-0.078859,-0.084113,-0.136247,0.131949,-0.505857,-0.852466,-0.048865,0.009947,0.063586,16.506338,-23.137930,-22.508358,,,,,,
1478365206.76,0.154514,0.528285,1.056575,-0.057645,-0.042156,-0.165211,0.132919,-0.504053,-0.853383,-0.025207,0.015680,0.025792,16.506338,-23.137930,-22.508358,,,,,,
1478365206.78,0.155900,0.527204,1.053279,-0.016366,0.020473,-0.105636,0.134186,-0.503119,-0.853736,-0.001542,-0.004053,0.029365,16.574640,-23.006042,-22.593197,,,,,,
1478365206.80,0.157835,0.526667,1.051656,-0.005726,0.054931,-0.051614,0.135881,-0.502655,-0.853742,0.001922,-0.006791,0.013562,16.667660,-22.923996,-22.608152,,,,,,
1478365206.82,0.158268,0.526647,1.050109,0.007145,-0.059082,-0.073091,0.136252,-0.502638,-0.853692,-0.002463,0.005445,-0.010886,16.706011,-22.906162,-22.597921,,,,,,
1478365206.84,0.157828,0.527057,1.048253,-0.072954,-0.099178,-0.063871,0.135843,-0.502992,-0.853549,0.013296,-0.012770,0.071459,16.726357,-22.897013,-22.592144,,,,,,
1478365206.86,0.154544,0.522757,1.048345,-0.293229,-0.222192,-0.013705,0.133371,-0.499271,-0.856119,0.015768,-0.016491,0.074030,16.705894,-22.841745,-22.663116,,,,,,
1478365206.88,0.145928,0.513681,1.049676,-0.481790,-0.444505,-0.004186,0.126645,-0.491386,-0.861685,0.029392,-0.032540,0.083303,16.705894,-22.841745,-22.663116,,,,,,
,,,,,,,,,,,,,,,,37.354303,-122.024414,40.920250,-1.000000,-1.000000,1478365301.60
,,,,,,,,,,,,,,,,37.354303,-122.024414,40.920250,-1.000000,-1.000000,1478365301.61
1478365206.91,0.134971,0.503037,1.051353,-0.485328,-0.469300,0.026379,0.117893,-0.482088,-0.868154,0.022030,-0.016874,0.094915,16.484646,-22.562647,-23.100491,,,,,,
1478365206.93,0.123262,0.495384,1.054954,-0.308643,-0.458874,0.132082,0.108170,-0.475370,-0.873111,0.018188,-0.007846,0.119693,16.112747,-22.218946,-23.688538,,,,,,
1478365206.95,0.112225,0.489884,1.058093,-0.256836,-0.440692,0.075740,0.098818,-0.470523,-0.876837,0.012632,0.011203,0.149054,15.893295,-22.131876,-23.917200,,,,,,
1478365206.97,0.102796,0.486222,1.060125,-0.107238,-0.365342,0.055837,0.090723,-0.467289,-0.879438,-0.003061,-0.001354,0.142392,15.507519,-21.989454,-24.298765,,,,,,
1478365206.99,0.094462,0.486615,1.060732,0.083509,-0.383245,0.019971,0.083372,-0.467637,-0.879980,-0.025114,-0.014190,0.186850,15.507519,-21.989454,-24.298765,,,,,,
1478365207.01,0.089372,0.486167,1.062550,-0.184721,-0.022883,0.115702,0.078911,-0.467240,-0.880602,0.014259,0.006211,0.368868,15.194443,-22.010574,-24.476780,,,,,,
1478365207.03,0.093577,0.476151,1.067644,-0.589432,0.513441,0.199258,0.083047,-0.458362,-0.884877,0.081519,0.030276,0.102773,15.106184,-22.006289,-24.535191,,,,,,
1478365207.06,0.105664,0.467068,1.074246,-0.290139,0.769251,0.232652,0.094171,-0.450270,-0.887913,0.030752,0.008894,-0.050915,15.249619,-26.815912,-25.786381,,,,,,
1478365207.08,0.118415,0.466216,1.078639,0.028836,0.585501,0.137746,0.105530,-0.449509,-0.887020,0.019394,0.008133,-0.051807,15.464541,-26.750748,-25.725996,,,,,,
1478365207.10,0.121625,0.466229,1.080869,-0.088188,-0.051005,0.081316,0.108376,-0.449521,-0.886671,0.005271,-0.010089,0.155073,15.740490,-26.813656,-25.492081,,,,,,
1478365207.12,0.114128,0.457366,1.085015,-0.672462,-0.361178,0.146593,0.102176,-0.441586,-0.891382,0.046551,0.032788,0.278070,15.740490,-26.813656,-25.492081,,,,,,
1478365207.14,0.099353,0.436538,1.093464,-1.180112,-0.617872,0.334711,0.089888,-0.422804,-0.901752,0.073580,0.006392,0.216434,15.423498,-26.512770,-25.995577,,,,,,
1478365207.16,0.080064,0.407382,1.107335,-1.509743,-0.569191,0.521447,0.073433,-0.396207,-0.915220,0.062080,0.052609,0.138075,15.073339,-26.130272,-26.581657,,,,,,
1478365207.18,0.068720,0.377596,1.121470,-1.299823,-0.077021,0.465336,0.063828,-0.368687,-0.927360,0.011398,0.104313,-0.032281,14.182087,-25.094160,-28.030926,,,,,,
1478365207.21,0.068880,0.358303,1.131461,-0.714367,0.285327,0.316754,0.064455,-0.350685,-0.934273,-0.058931,0.078026,-0.172539,13.958155,-24.612896,-28.564953,,,,,,
1478365207.23,0.070562,0.345716,1.138964,-0.488317,0.256021,0.236461,0.066332,-0.338871,-0.938492,-0.047899,0.026920,-0.053131,13.948357,-24.104309,-29.000122,,,,,,
1478365207.25,0.071494,0.334053,1.144421,-0.614483,0.040658,0.181345,0.067485,-0.327875,-0.942308,-0.044322,0.037577,-0.029036,13.948357,-24.104309,-29.000122,,,,,,
1478365207.27,0.069638,0.319988,1.149254,-0.686341,0.011672,0.167483,0.066049,-0.314555,-0.946939,-0.042887,0.024256,-0.024405,13.850207,-23.625294,-29.438047,,,,,,
1478365207.29,0.071339,0.308285,1.153206,-0.430690,0.208653,0.111867,0.067918,-0.303424,-0.950432,-0.062379,0.055011,-0.088829,13.781327,-23.340117,-29.696724,,,,,,
1478365207.31,0.077996,0.303764,1.154770,-0.127957,0.389137,0.024350,0.074349,-0.299114,-0.951317,-0.057382,0.067577,-0.011666,13.874691,-22.945444,-29.959656,,,,,,
1478365207.33,0.088357,0.292219,1.154977,-0.392934,0.385584,0.010789,0.084501,-0.288078,-0.953871,-0.000059,0.062996,0.070525,14.051538,-22.882111,-29.925652,,,,,,
1478365207.36,0.093714,0.279136,1.156747,-0.688599,0.241066,0.039651,0.089955,-0.275525,-0.957076,0.027370,0.029126,-0.015474,14.448683,-22.263744,-30.201698,,,,,,
1478365207.38,0.098210,0.266087,1.159013,-0.527257,0.256820,0.037287,0.094601,-0.262958,-0.960158,0.002353,0.020511,-0.124391,14.448683,-22.263744,-30.201698,,,,,,
1478365207.40,0.107150,0.258741,1.161240,-0.263240,0.577316,0.099083,0.103385,-0.255864,-0.961169,0.012750,-0.014217,-0.088255,14.664691,-21.696199,-30.509064,,,,,,
1478365207.42,0.120025,0.252759,1.164515,-0.330342,0.591529,0.132966,0.115933,-0.250076,-0.961260,0.025272,-0.000168,-0.079481,14.877983,-21.558868,-30.503147,,,,,,
1478365207.44,0.128122,0.243207,1.169354,-0.555406,0.349672,0.185726,0.124012,-0.240816,-0.962615,0.019192,0.011889,-0.134934,15.369524,-21.293728,-30.445625,,,,,,
1478365207.46,0.131192,0.231323,1.175171,-0.574383,0.140546,0.196751,0.127331,-0.229266,-0.964999,0.015873,0.000338,-0.132550,15.476955,-21.071688,-30.545525,,,,,,
1478365207.48,0.132323,0.221210,1.180701,-0.441336,0.112017,0.185253,0.128722,-0.219410,-0.967104,0.001680,-0.000194,-0.204939,15.493642,-20.620100,-30.843798,,,,,,
1478365207.51,0.134614,0.213288,1.186197,-0.395350,0.193266,0.200841,0.131167,-0.211674,-0.968498,0.002729,0.016194,-0.191826,15.493642,-20.620100,-30.843798,,,,,,
1478365207.53,0.138883,0.205877,1.191823,-0.347003,0.286887,0.211562,0.135514,-0.204426,-0.969456,-0.006714,0.003346,-0.257487,15.526523,-20.314276,-31.029638,,,,,,
1478365207.55,0.145086,0.200945,1.196687,-0.190351,0.352295,0.174713,0.141669,-0.199595,-0.969583,-0.022772,0.007304,-0.334280,15.590870,-20.181488,-31.083977,,,,,,
1478365207.57,0.151389,0.200584,1.199565,0.061584,0.285575,0.098781,0.147787,-0.199241,-0.968742,-0.042364,-0.006569,-0.390099,15.814302,-20.063337,-31.047571,,,,,,
1478365207.59,0.153943,0.204724,1.200302,0.238030,0.020173,0.043538,0.150134,-0.203297,-0.967538,-0.044207,-0.004238,-0.386542,15.814302,-20.063337,-31.047571,,,,,,
1478365207.61,0.149907,0.210553,1.200181,0.275492,-0.304623,0.027994,0.146048,-0.209001,-0.966948,-0.027517,0.001054,-0.267656,15.860825,-20.378084,-30.818003,,,,,,
1478365207.63,0.142149,0.217548,1.199401,0.384955,-0.370035,-0.002335,0.138332,-0.215837,-0.966581,-0.016643,0.012605,-0.200228,15.860825,-20.378084,-30.818003,,,,,,
1478365207.66,0.136479,0.227490,1.197829,0.488689,-0.205084,-0.014944,0.132551,-0.225532,-0.965176,-0.010862,0.022301,-0.201633,15.501221,-20.717913,-30.774368,,,,,,
1478365207.68,0.134638,0.237632,1.196549,0.472323,-0.047741,0.030832,0.130459,-0.235402,-0.963103,0.027149,-0.008098,-0.090761,15.375992,-20.953625,-30.677446,,,,,,
1478365207.70,0.135774,0.246548,1.197040,0.345288,0.129195,0.111904,0.131264,-0.244058,-0.960836,0.025154,0.004586,-0.007807,15.299372,-21.424789,-30.388958,,,,,,
1478365207.72,0.140746,0.248508,1.198717,0.251180,0.287389,0.116691,0.135972,-0.245958,-0.959696,0.000853,0.022997,-0.020803,15.299372,-21.424789,-30.388958,,,,,,
1478365207.74,0.146518,0.254110,1.200327,0.249988,0.263863,0.120385,0.141306,-0.251384,-0.957517,0.023214,0.024058,-0.046817,15.538398,-21.787405,-30.007473,,,,,,
1478365207.76,0.150875,0.258840,1.203359,0.144027,0.254825,0.204807,0.145296,-0.255959,-0.955706,0.037794,-0.008445,0.010989,15.538398,-21.787405,-30.007473,,,,,,
1478365207.78,0.157490,0.259943,1.208313,-0.051320,0.443692,0.231625,0.151570,-0.257025,-0.954445,0.007426,0.009650,0.079246,15.661459,-22.054022,-29.747608,,,,,,
1478365207.81,0.165228,0.255413,1.213045,-0.052462,0.560317,0.130992,0.159141,-0.252645,-0.954382,-0.036079,0.055379,0.027960,15.767017,-22.107983,-29.651638,,,,,,
1478365207.83,0.176652,0.255144,1.214373,-0.013656,0.537880,0.016916,0.170046,-0.252385,-0.952568,0.004179,0.039876,0.071007,16.104944,-22.018333,-29.536507,,,,,,
1478365207.85,0.188655,0.255476,1.215646,0.050002,0.582850,0.124783,0.181451,-0.252706,-0.950376,-0.007227,0.040197,0.068815,16.104944,-22.018333,-29.536507,,,,,,
1478365207.87,0.197948,0.259561,1.218374,0.188828,0.380851,0.130932,0.190071,-0.256656,-0.947629,0.049324,-0.012875,-0.060473,16.775211,-22.160294,-29.053310,,,,,,
1478365207.89,0.199609,0.263170,1.220039,0.141372,-0.141258,0.117496,0.191459,-0.260143,-0.946398,0.039620,-0.000645,-0.081846,16.775211,-22.160294,-29.053310,,,,,,
1478365207.91,0.188883,0.265423,1.222765,0.224779,-0.445506,0.125014,0.181187,-0.262318,-0.947819,-0.001972,0.017063,-0.015285,16.769403,-22.370813,-28.894899,,,,,,
1478365207.93,0.180170,0.269471,1.222104,0.168223,-0.391307,-0.063673,0.172730,-0.266222,-0.948309,-0.037751,0.045931,0.038000,16.263323,-22.532902,-29.057770,,,,,,
1478365207.95,0.172741,0.273597,1.219573,0.237720,-0.362260,-0.068224,0.165490,-0.270197,-0.948476,0.010474,0.009287,0.024343,16.109903,-22.598347,-29.092386,,,,,,
1478365207.98,0.167798,0.277693,1.217012,0.175411,-0.199394,-0.078610,0.160614,-0.274138,-0.948183,0.001969,0.012023,0.069216,16.109903,-22.598347,-29.092386,,,,,,
1478365208.00,0.165338,0.278726,1.215969,-0.040003,-0.097076,-0.023926,0.158233,-0.275131,-0.948296,-0.000976,0.008942,0.103203,15.838377,-22.788837,-29.092886,,,,,,
1478365208.02,0.164183,0.273887,1.215517,-0.297915,-0.095670,-0.074044,0.157354,-0.270476,-0.949780,-0.015081,0.014189,0.033765,15.838377,-22.788837,-29.092886,,,,,,
1478365208.04,0.160667,0.267587,1.214255,-0.222657,-0.230074,-0.106232,0.154283,-0.264405,-0.951991,-0.012010,0.008119,0.035975,15.807978,-22.565144,-29.283157,,,,,,
1478365208.06,0.154290,0.266582,1.212718,0.091689,-0.371989,-0.048364,0.148250,-0.263436,-0.953218,-0.001674,-0.012657,-0.036300,15.642899,-22.354164,-29.532564,,,,,,
1478365208.08,0.145550,0.272220,1.211678,0.338963,-0.438945,0.012661,0.139695,-0.268870,-0.952992,0.001265,-0.008138,-0.003108,15.465647,-22.429382,-29.568867,,,,,,
1478365208.10,0.136507,0.280311,1.210448,0.396655,-0.438207,-0.020252,0.130772,-0.276654,-0.952030,-0.013737,0.011579,0.025318,15.465647,-22.429382,-29.568867,,,,,,
1478365208.13,0.127439,0.289702,1.208202,0.490841,-0.462630,-0.036344,0.121798,-0.285666,-0.950558,0.008069,-0.000253,0.032604,14.853549,-22.967457,-29.469463,,,,,,
1478365208.15,0.117883,0.299824,1.206959,0.442568,-0.480855,0.023752,0.112364,-0.295352,-0.948758,0.022417,-0.016843,0.072476,14.853549,-22.967457,-29.469463,,,,,,
1478365208.17,0.106623,0.307550,1.206656,0.323584,-0.552758,0.028457,0.101428,-0.302724,-0.947666,0.014279,-0.014720,0.092182,14.409556,-23.407646,-29.343277,,,,,,
1478365208.19,0.096030,0.313602,1.206400,0.271839,-0.442002,0.014762,0.091206,-0.308487,-0.946846,0.004222,-0.010224,0.082619,13.894978,-23.715736,-29.344078,,,,,,
1478365208.21,0.090413,0.322836,1.205718,0.354400,-0.254581,0.017516,0.085625,-0.317257,-0.944466,0.013786,-0.009006,0.077065,13.701962,-23.857498,-29.319916,,,,,,
1478365208.23,0.086275,0.330253,1.205823,0.325028,-0.170150,0.050907,0.081511,-0.324282,-0.942442,0.017900,-0.001981,0.075041,13.701962,-23.857498,-29.319916,,,,,,
1478365208.25,0.081600,0.336202,1.207063,0.230802,-0.218845,0.092858,0.076946,-0.329904,-0.940873,0.010380,-0.032813,0.087632,13.510078,-24.258644,-29.078810,,,,,,
1478365208.28,0.075688,0.339730,1.209108,0.140112,-0.248940,0.106703,0.071294,-0.333232,-0.940145,-0.004598,-0.023000,0.070883,13.246147,-24.518341,-28.982267,,,,,,
1478365208.30,0.069520,0.342670,1.211361,0.122445,-0.257451,0.114873,0.065426,-0.336003,-0.939586,-0.005047,-0.017894,0.074702,13.087221,-24.605370,-28.980715,,,,,,
1478365208.32,0.062018,0.351940,1.214145,0.147190,-0.255237,0.124017,0.058179,-0.344720,-0.936901,-0.012616,-0.023902,0.090999,12.711997,-24.960426,-28.843777,,,,,,
1478365208.34,0.056991,0.355590,1.216622,0.191999,-0.156573,0.107721,0.053397,-0.348143,-0.935919,-0.036277,-0.013490,0.118674,12.554790,-25.054079,-28.831434,,,,,,
1478365208.36,0.054636,0.359789,1.218435,0.164981,-0.041075,0.078686,0.051113,-0.352077,-0.934574,-0.047298,-0.013356,0.155766,12.554790,-25.054079,-28.831434,,,,,,
1478365208.38,0.053873,0.362138,1.219271,0.064881,-0.022663,0.035910,0.050355,-0.354274,-0.933785,-0.045594,-0.038151,0.231240,12.374208,-25.266317,-28.724092,,,,,,
1478365208.40,0.052942,0.361408,1.220403,-0.087007,0.002327,0.053093,0.049498,-0.353592,-0.934089,-0.052748,-0.038162,0.246879,12.315337,-25.349815,-28.675787,,,,,,
1478365208.43,0.055473,0.358889,1.221432,-0.139847,0.240659,0.034198,0.051912,-0.351235,-0.934847,-0.055162,-0.040520,0.247637,12.296737,-25.320810,-28.709373,,,,,,
1478365208.45,0.064479,0.354511,1.222904,-0.264459,0.543980,0.070994,0.060428,-0.347132,-0.935867,0.042828,-0.008245,0.168076,12.530303,-25.191982,-28.721714,,,,,,
1478365208.47,0.075961,0.347758,1.226438,-0.327984,0.591468,0.166079,0.071345,-0.340791,-0.937428,0.070424,-0.029814,0.012455,12.757069,-25.073225,-28.725807,,,,,,
1478365208.49,0.085304,0.343615,1.231486,-0.111378,0.455486,0.215520,0.080220,-0.336893,-0.938119,0.033580,-0.026190,-0.087546,12.757069,-25.073225,-28.725807,,,,,,
1478365208.51,0.090353,0.344911,1.235257,0.119241,0.200707,0.155408,0.084916,-0.338113,-0.937267,-0.014466,-0.027167,-0.042851,13.105624,-24.919695,-28.702488,,,,,,
1478365208.53,0.089491,0.346852,1.238823,0.021311,-0.098071,0.179460,0.084050,-0.339939,-0.936684,0.006343,-0.031200,0.068795,13.182221,-25.051510,-28.552271,,,,,,
1478365208.55,0.083890,0.345389,1.244128,-0.121208,-0.184759,0.259520,0.078843,-0.338563,-0.937635,0.007064,-0.035689,0.157789,13.068069,-25.096027,-28.565649,,,,,,
1478365208.58,0.080958,0.343541,1.250998,-0.104527,0.084955,0.304603,0.076144,-0.336823,-0.938484,-0.002459,0.004044,0.162758,12.739580,-25.105339,-28.705507,,,,,,
1478365208.60,0.085119,0.342355,1.258309,-0.067782,0.433776,0.326733,0.080082,-0.335706,-0.938556,-0.003803,-0.003481,0.121921,12.696937,-25.124184,-28.707914,,,,,,
1478365208.62,0.091910,0.343160,1.266124,0.080580,0.398836,0.347427,0.086429,-0.336464,-0.937722,-0.010151,-0.002723,0.121086,12.696937,-25.124184,-28.707914,,,,,,
1478365208.64,0.093167,0.347660,1.272660,0.201562,-0.019500,0.253277,0.087466,-0.340699,-0.936095,-0.151507,-0.020614,0.197066,12.814643,-25.244642,-28.549503,,,,,,
1478365208.66,0.086536,0.347106,1.275124,-0.286293,-0.396902,0.030925,0.081274,-0.340178,-0.936842,-0.135092,0.031630,0.384734,12.647956,-25.496117,-28.399975,,,,,,
1478365208.68,0.071872,0.327584,1.277181,-1.258041,-0.745264,0.046801,0.067991,-0.321756,-0.944378,0.006349,-0.000342,0.374234,12.445814,-25.365364,-28.605618,,,,,,
,,,,,,,,,,,,,,,,37.354362,-122.024525,45.732452,0.000000,-1.000000,1478365302.77
1478365208.70,0.052340,0.297414,1.285514,-1.385115,-0.789397,0.434306,0.050019,-0.293049,-0.954788,0.108565,0.038669,0.094071,11.644552,-24.245422,-29.885534,,,,,,
1478365208.73,0.039137,0.275641,1.298806,-0.815873,-0.167414,0.569921,0.037650,-0.272164,-0.961514,0.062097,0.022729,-0.014560,11.644552,-24.245422,-29.885534,,,,,,
1478365208.75,0.043465,0.265518,1.309589,-0.306690,0.625502,0.376998,0.041928,-0.262410,-0.964045,-0.033719,0.041203,0.071376,10.831874,-23.422220,-30.832634,,,,,,
,,,,,,,,,,,,,,,,37.354362,-122.024525,45.732452,0.000000,-1.000000,1478365303.38
1478365208.77,0.066704,0.262332,1.315616,-0.148370,1.482432,0.243003,0.064375,-0.259334,-0.963640,0.050509,0.077739,0.026689,10.884256,-23.284904,-30.918077,,,,,,
1478365208.79,0.098836,0.260004,1.320875,-0.091835,1.507920,0.224694,0.095359,-0.257084,-0.961673,0.078912,0.014759,-0.093961,11.982151,-23.220543,-30.558397,,,,,,
1478365208.81,0.126632,0.259450,1.327514,-0.069559,1.301903,0.332138,0.122067,-0.256549,-0.958792,0.052203,0.014224,-0.096841,12.633436,-23.220274,-30.295153,,,,,,
1478365208.83,0.147731,0.256984,1.334716,-0.232317,0.953143,0.282572,0.142361,-0.254165,-0.956626,0.052341,0.081679,-0.058205,13.589500,-23.260086,-29.847530,,,,,,
1478365208.85,0.162078,0.248792,1.340856,-0.551731,0.587486,0.165726,0.156401,-0.246234,-0.956508,0.013063,0.090457,-0.015751,13.589500,-23.260086,-29.847530,,,,,,
1478365208.88,0.168867,0.231438,1.346550,-1.023013,0.257892,0.101529,0.163585,-0.229377,-0.959493,0.029927,0.098762,-0.003306,14.135000,-22.944550,-29.838408,,,,,,
1478365208.90,0.168609,0.205694,1.352612,-1.303523,-0.082292,0.057746,0.164274,-0.204247,-0.965037,0.024126,0.094979,-0.132558,14.257801,-22.536079,-30.090223,,,,,,
1478365208.92,0.161454,0.178541,1.358214,-1.262511,-0.381113,0.039781,0.158198,-0.177594,-0.971305,-0.004710,0.057141,-0.242196,14.175795,-21.330624,-30.994076,,,,,,
1478365208.94,0.152613,0.152978,1.362673,-1.162415,-0.352266,-0.013002,0.150246,-0.152382,-0.976835,-0.017510,0.079918,-0.240771,13.975896,-20.704660,-31.505119,,,,,,
1478365208.96,0.146756,0.131788,1.364792,-0.890303,-0.197570,-0.060796,0.144962,-0.131407,-0.980672,-0.056553,0.040480,-0.318980,13.653868,-19.554188,-32.369537,,,,,,
1478365208.98,0.142792,0.115718,1.365449,-0.664210,-0.186088,-0.102016,0.141355,-0.115460,-0.983203,-0.062299,0.019055,-0.321241,13.653868,-19.554188,-32.369537,,,,,,
1478365209.00,0.137639,0.103244,1.364749,-0.548891,-0.316013,-0.103919,0.136475,-0.103060,-0.985268,-0.057419,0.006655,-0.319175,13.508507,-18.733746,-32.911221,,,,,,
1478365209.03,0.126539,0.089732,1.365128,-0.709260,-0.653849,-0.051861,0.125694,-0.089611,-0.988014,-0.002601,0.020016,-0.270562,13.403962,-18.413158,-33.134132,,,,,,
1478365209.05,0.108829,0.071798,1.367127,-0.903695,-0.892347,0.027311,0.108335,-0.071737,-0.991523,0.017901,0.022054,-0.283029,12.790348,-17.656404,-33.782242,,,,,,
1478365209.07,0.090590,0.054900,1.369439,-0.672810,-0.769507,0.010437,0.090330,-0.054872,-0.994399,-0.027906,0.030840,-0.369966,12.790348,-17.656404,-33.782242,,,,,,
1478365209.09,0.079393,0.047511,1.367272,-0.121502,-0.360833,-0.219819,0.079220,-0.047494,-0.995725,-0.076733,0.057595,-0.390109,11.540075,-16.512053,-34.795979,,,,,,
1478365209.11,0.076656,0.050408,1.360560,0.293171,-0.073693,-0.315954,0.076484,-0.050387,-0.995797,-0.021674,0.032809,-0.360343,11.540075,-16.512053,-34.795979,,,,,,
1478365209.13,0.074164,0.057363,1.354025,0.337854,-0.208019,-0.248526,0.073974,-0.057332,-0.995611,0.042069,0.014378,-0.321299,11.505609,-16.564104,-34.782654,,,,,,
1478365209.15,0.066550,0.063357,1.349064,0.283538,-0.458993,-0.192959,0.066368,-0.063314,-0.995784,0.040993,0.019155,-0.315373,11.492610,-16.709814,-34.717190,,,,,,
1478365209.18,0.055906,0.071022,1.345039,0.449556,-0.520165,-0.147317,0.055736,-0.070962,-0.995921,0.050694,0.007180,-0.322622,11.138792,-16.975004,-34.703861,,,,,,
1478365209.20,0.045022,0.083381,1.342132,0.630926,-0.532019,-0.069603,0.044850,-0.083285,-0.995516,0.061580,0.019503,-0.323026,11.138792,-16.975004,-34.703861,,,,,,
1478365209.22,0.032964,0.097112,1.340670,0.630914,-0.569246,-0.032808,0.032803,-0.096959,-0.994748,0.029834,0.059026,-0.137577,10.327161,-17.872162,-34.503868,,,,,,
1478365209.24,0.022363,0.109177,1.339388,0.513232,-0.444218,-0.046859,0.022228,-0.108961,-0.993798,0.003499,0.068449,-0.045784,10.327161,-17.872162,-34.503868,,,,,,
1478365209.26,0.016448,0.117537,1.338240,0.297932,-0.156089,-0.017055,0.016334,-0.117267,-0.992966,0.035928,0.070544,0.040253,9.806246,-18.477810,-34.336414,,,,,,
1478365209.28,0.017263,0.120093,1.338970,0.042615,0.142259,0.052173,0.017138,-0.119804,-0.992650,0.037626,0.084297,0.035542,9.683625,-18.671703,-34.266254,,,,,,
1478365209.30,0.024657,0.122889,1.340616,0.255981,0.449660,0.099346,0.024469,-0.122580,-0.992157,0.016532,0.069495,-0.087479,9.789344,-18.793711,-34.169380,,,,,,
1478365209.33,0.033785,0.134684,1.342586,0.702260,0.393230,0.111174,0.033472,-0.134277,-0.990378,0.001791,0.070419,-0.175286,9.789344,-18.793711,-34.169380,,,,,,
1478365209.35,0.039036,0.151783,1.344299,0.897591,0.173364,0.104004,0.038578,-0.151201,-0.987750,-0.012073,0.067232,-0.002240,10.321060,-19.727327,-33.479691,,,,,,
1478365209.37,0.039873,0.170884,1.345382,0.855034,-0.054006,0.066787,0.039282,-0.170054,-0.984652,-0.018133,0.051280,0.025804,10.321060,-19.727327,-33.479691,,,,,,
1478365209.39,0.035176,0.187513,1.345136,0.738265,-0.296669,-0.006406,0.034552,-0.186416,-0.981863,-0.013403,0.067642,0.023016,10.309077,-20.691263,-32.896442,,,,,,
1478365209.41,0.028268,0.199707,1.342044,0.424884,-0.378536,-0.246110,0.027702,-0.198382,-0.979733,-0.066170,0.082537,0.179715,10.023572,-21.407013,-32.524593,,,,,,
1478365209.43,0.017470,0.203414,1.336145,0.058488,-0.635039,-0.223561,0.017109,-0.202014,-0.979233,-0.015735,0.056278,0.190567,9.877912,-21.528753,-32.488781,,,,,,
1478365209.45,0.004317,0.201536,1.331564,-0.134639,-0.638102,-0.218300,0.004229,-0.200174,-0.979751,-0.043032,0.039103,0.192565,9.877912,-21.528753,-32.488781,,,,,,
1478365209.48,-0.005176,0.199673,1.327321,-0.020215,-0.371855,-0.159899,-0.005074,-0.198349,-0.980118,-0.050774,-0.008652,0.217301,9.153785,-21.345705,-32.819969,,,,,,
1478365209.50,-0.007679,0.202228,1.326032,0.186157,-0.015076,-0.002855,-0.007522,-0.200852,-0.979593,-0.054642,-0.024581,0.249765,9.153785,-21.345705,-32.819969,,,,,,
1478365209.52,-0.007112,0.205732,1.327374,0.087307,0.047664,0.071785,-0.006962,-0.204284,-0.978887,-0.043895,-0.019410,0.270269,9.043160,-21.443750,-32.786709,,,,,,
1478365209.54,-0.005843,0.202392,1.326650,-0.275460,0.041693,-0.104383,-0.005724,-0.201013,-0.979572,-0.066191,0.014093,0.128070,9.075517,-21.470709,-32.760109,,,,,,
1478365209.56,-0.006179,0.196578,1.322785,-0.207281,-0.091290,-0.199172,-0.006060,-0.195315,-0.980722,-0.044264,-0.020613,0.060510,9.123727,-21.294233,-32.861748,,,,,,
1478365209.58,-0.007599,0.197109,1.318668,0.183673,-0.121205,-0.170344,-0.007452,-0.195835,-0.980608,-0.042872,-0.020092,0.060397,9.123727,-21.294233,-32.861748,,,,,,
1478365209.60,-0.010282,0.205079,1.316039,0.439218,-0.152353,-0.098189,-0.010067,-0.203644,-0.978993,0.030407,-0.059219,0.130635,9.117334,-21.335583,-32.836693,,,,,,
1478365209.63,-0.013160,0.214389,1.314260,0.412137,-0.158325,-0.075559,-0.012858,-0.212750,-0.977022,0.004222,-0.074801,0.167192,9.117334,-21.335583,-32.836693,,,,,,
1478365209.65,-0.017760,0.222270,1.311470,0.337812,-0.312193,-0.172425,-0.017323,-0.220445,-0.975246,-0.020794,-0.071303,0.184627,9.014994,-21.759129,-32.586063,,,,,,
1478365209.67,-0.025663,0.229163,1.306645,0.302362,-0.457826,-0.243921,-0.024989,-0.227162,-0.973536,-0.012608,-0.109325,0.251353,8.793850,-22.061146,-32.443111,,,,,,
1478365209.69,-0.032688,0.234368,1.301718,0.169415,-0.291876,-0.211915,-0.031788,-0.232228,-0.972142,0.024968,-0.125911,0.373158,8.650343,-22.175110,-32.403973,,,,,,
1478365209.71,-0.033106,0.233619,1.298597,-0.187096,0.105211,-0.098775,-0.032201,-0.231500,-0.972302,0.057713,-0.118644,0.473462,8.650343,-22.175110,-32.403973,,,,,,
,,,,,,,,,,,,,,,,37.354362,-122.024525,45.019135,0.000000,-1.000000,1478365305.00
1478365209.73,-0.024485,0.224494,1.297885,-0.550630,0.556827,0.028766,-0.023868,-0.222613,-0.974615,0.121784,-0.089353,0.266531,8.808936,-21.963856,-32.504971,,,,,,
1478365209.75,-0.011064,0.211958,1.300136,-0.550521,0.653156,0.157058,-0.010816,-0.210374,-0.977561,0.113645,-0.113951,0.080787,8.808936,-21.963856,-32.504971,,,,,,
1478365209.78,0.000337,0.203224,1.305185,-0.318573,0.532988,0.271686,0.000330,-0.201828,-0.979421,0.102499,-0.122497,0.082647,9.392926,-21.406046,-32.712925,,,,,,
1478365209.80,0.009428,0.199048,1.312054,-0.172578,0.460846,0.327895,0.009242,-0.197736,-0.980212,0.050908,-0.080157,0.159380,9.760980,-21.186428,-32.748127,,,,,,
1478365209.82,0.016266,0.191860,1.319883,-0.480003,0.328788,0.376035,0.015967,-0.190686,-0.981521,0.093088,-0.030094,0.211425,9.876874,-21.121080,-32.755589,,,,,,
1478365209.84,0.020075,0.177618,1.330018,-0.728494,0.239345,0.496445,0.019758,-0.176686,-0.984069,0.094851,-0.029934,0.116042,9.876874,-21.121080,-32.755589,,,,,,
1478365209.86,0.024557,0.165858,1.341702,-0.456406,0.317107,0.523470,0.024218,-0.165099,-0.985980,0.041776,0.007506,0.009265,9.903328,-20.630527,-33.058838,,,,,,
1478365209.88,0.029128,0.158543,1.351264,-0.315214,0.215716,0.374032,0.028759,-0.157880,-0.987039,-0.010540,0.062162,-0.008734,9.900689,-20.257019,-33.289803,,,,,,
1478365209.90,0.027005,0.152550,1.360268,-0.274242,-0.212166,0.486071,0.026688,-0.151959,-0.988026,0.044922,-0.003467,-0.029750,9.889359,-20.149069,-33.358612,,,,,,
1478365209.92,0.013893,0.153203,1.377611,0.255492,-0.682512,0.839757,0.013730,-0.152605,-0.988192,-0.157651,0.043321,0.025606,9.221089,-20.143982,-33.552540,,,,,,
1478365209.95,0.002765,0.159998,1.388667,0.234417,-0.246648,0.367146,0.002730,-0.159316,-0.987224,-0.015090,0.089797,0.234828,8.667704,-20.414833,-33.536354,,,,,,
1478365209.97,0.000107,0.158177,1.396557,-0.282381,-0.001346,0.383844,0.000106,-0.157518,-0.987516,-0.012465,0.087999,0.235121,8.667704,-20.414833,-33.536354,,,,,,
1478365209.99,0.001340,0.149977,1.406866,-0.335189,0.190796,0.543726,0.001325,-0.149415,-0.988774,0.039980,-0.005904,0.003865,8.261352,-20.555229,-33.553150,,,,,,
1478365210.01,0.003587,0.148696,1.419936,0.072277,0.184182,0.604710,0.003548,-0.148148,-0.988959,-0.042305,0.025498,0.028250,8.090837,-20.356724,-33.715328,,,,,,
1478365210.03,0.005357,0.146009,1.430608,-0.369433,0.130768,0.391301,0.005299,-0.145491,-0.989345,-0.101399,0.145811,0.242519,7.993574,-20.459183,-33.676491,,,,,,
1478365210.05,0.008455,0.127330,1.435002,-1.132557,0.236696,0.114939,0.008386,-0.126986,-0.991869,-0.070200,0.165927,0.233141,7.932085,-20.015680,-33.956383,,,,,,
1478365210.07,0.016261,0.103472,1.436873,-0.954596,0.476528,0.068419,0.016173,-0.103287,-0.994520,-0.051330,0.108322,-0.029162,8.059711,-19.381382,-34.292629,,,,,,
1478365210.10,0.028308,0.092270,1.439189,-0.310351,0.596403,0.116331,0.028184,-0.092139,-0.995347,-0.042100,0.051901,-0.166426,8.059711,-19.381382,-34.292629,,,,,,
1478365210.12,0.041744,0.086511,1.442084,-0.359757,0.671172,0.127246,0.041575,-0.086403,-0.995392,-0.016917,0.075386,0.159485,8.592457,-18.637617,-34.574417,,,,,,
1478365210.14,0.054606,0.071822,1.445893,-0.875625,0.543708,0.143555,0.054438,-0.071761,-0.995935,-0.049616,0.074477,0.057199,9.230939,-18.264282,-34.609062,,,,,,
1478365210.16,0.065118,0.051519,1.448962,-0.960459,0.522439,0.053495,0.064986,-0.051497,-0.996557,-0.060164,0.054213,0.057821,9.497518,-17.804756,-34.775986,,,,,,
1478365210.18,0.077262,0.031887,1.449899,-0.881566,0.568946,-0.054895,0.077146,-0.031881,-0.996510,0.011492,0.084341,-0.119899,10.079453,-16.752815,-35.133022,,,,,,
1478365210.20,0.088159,0.014988,1.451274,-0.762649,0.484597,0.044762,0.088035,-0.014987,-0.996005,0.043282,0.056705,-0.108366,10.397204,-16.273186,-35.265606,,,,,,
1478365210.22,0.099840,-0.002106,1.454697,-0.849738,0.541088,0.090321,0.099674,0.002106,-0.995018,0.035031,0.076080,-0.120857,10.397204,-16.273186,-35.265606,,,,,,
1478365210.25,0.103907,-0.022065,1.458504,-1.016199,-0.088850,0.087787,0.103695,0.022063,-0.994364,0.031147,0.045289,-0.239995,10.963388,-15.391088,-35.489433,,,,,,
1478365210.27,0.095803,-0.046443,1.463157,-1.209546,-0.427529,0.098671,0.095553,0.046426,-0.994341,0.005826,0.021033,-0.191404,10.937465,-14.274986,-35.960785,,,,,,
1478365210.29,0.094766,-0.068449,1.466615,-0.860580,0.203226,0.035733,0.094403,0.068396,-0.993182,-0.009625,0.066568,-0.238462,10.684635,-13.598820,-36.297272,,,,,,
1478365210.31,0.105728,-0.079744,1.467845,-0.375142,0.617083,0.008293,0.105196,0.079659,-0.991256,0.044584,0.037284,-0.445939,10.964417,-12.689276,-36.542374,,,,,,
1478365210.33,0.116251,-0.085991,1.468726,-0.274053,0.342414,0.002701,0.115560,0.085885,-0.989581,0.038065,0.019996,-0.478529,10.964417,-12.689276,-36.542374,,,,,,
1478365210.35,0.117422,-0.091503,1.469268,-0.226085,-0.121181,-0.015966,0.116663,0.091375,-0.988959,0.036963,0.014506,-0.479150,11.509371,-12.334225,-36.496338,,,,,,
1478365210.37,0.111363,-0.093490,1.468662,0.017520,-0.341464,-0.051373,0.110648,0.093354,-0.989466,-0.005042,0.022232,-0.487585,11.506145,-12.184754,-36.547527,,,,,,
1478365210.40,0.103146,-0.088789,1.466897,0.323654,-0.400183,-0.062412,0.102557,0.088672,-0.990767,-0.002750,0.030300,-0.383836,11.160719,-12.158953,-36.663052,,,,,,
1478365210.42,0.092699,-0.082323,1.464558,0.290605,-0.497624,-0.094794,0.092253,0.082230,-0.992334,0.003862,0.060745,-0.287008,10.934357,-12.330735,-36.673889,,,,,,
1478365210.44,0.083735,-0.075913,1.461217,0.362535,-0.319870,-0.158355,0.083396,0.075840,-0.993626,-0.003440,0.078640,-0.274501,10.428813,-12.649836,-36.712433,,,,,,
1478365210.46,0.078595,-0.065331,1.456761,0.601668,-0.194655,-0.165249,0.078347,0.065284,-0.994786,-0.014153,0.065117,-0.316722,10.428813,-12.649836,-36.712433,,,,,,
1478365210.48,0.072856,-0.050679,1.452313,0.737002,-0.334700,-0.159317,0.072698,0.050657,-0.996067,-0.011770,0.072939,-0.331967,10.219300,-13.194756,-36.579304,,,,,,
1478365210.50,0.061949,-0.034880,1.447470,0.753303,-0.602303,-0.184051,0.061872,0.034872,-0.997475,-0.042982,0.094110,-0.266792,10.089858,-13.587730,-36.471214,,,,,,
1478365210.52,0.045612,-0.019207,1.442039,0.753121,-0.842420,-0.247168,0.045588,0.019206,-0.998776,-0.063593,0.098043,-0.228184,9.511755,-14.405129,-36.312534,,,,,,
1478365210.55,0.026842,-0.001776,1.435192,0.880277,-0.849743,-0.305356,0.026839,0.001776,-0.999638,-0.044844,0.115473,-0.227321,9.082730,-14.808908,-36.259918,,,,,,
1478365210.57,0.009663,0.017688,1.428280,0.945091,-0.782285,-0.297862,0.009661,-0.017687,-0.999797,-0.021044,0.086397,-0.033772,8.256192,-15.754428,-36.058491,,,,,,
1478365210.59,-0.007026,0.036607,1.421993,0.853225,-0.801190,-0.299978,-0.007021,-0.036599,-0.999305,-0.006940,0.126839,0.008232,8.256192,-15.754428,-36.058491,,,,,,
1478365210.61,-0.022628,0.055688,1.415396,0.903935,-0.675310,-0.329657,-0.022591,-0.055659,-0.998194,0.012184,0.149333,0.028391,7.495319,-16.692842,-35.801544,,,,,,
1478365210.63,-0.035372,0.074577,1.408852,0.830985,-0.585433,-0.326672,-0.035267,-0.074508,-0.996597,0.018177,0.137664,0.077056,7.168849,-17.167135,-35.643772,,,,,,
1478365210.65,-0.046979,0.089126,1.402586,0.566064,-0.539536,-0.299951,-0.046775,-0.089008,-0.994932,0.010475,0.084354,0.124342,6.668652,-18.036413,-35.310028,,,,,,
1478365210.67,-0.054772,0.100193,1.397256,0.553271,-0.305386,-0.283630,-0.054470,-0.100025,-0.993493,0.008358,0.093663,0.083565,6.456045,-18.327425,-35.199516,,,,,,
1478365210.70,-0.057101,0.116265,1.391019,0.834854,-0.065292,-0.350969,-0.056685,-0.116003,-0.991630,-0.003389,0.080313,0.013679,6.340943,-18.941839,-34.893845,,,,,,
1478365210.72,-0.059536,0.134556,1.384141,0.759340,-0.266324,-0.391466,-0.058963,-0.134150,-0.989205,0.013279,0.093043,0.113946,6.340943,-18.941839,-34.893845,,,,,,
,,,,,,,,,,,,,,,,37.354362,-122.024525,45.147614,0.000000,-1.000000,1478365306.00
1478365210.74,-0.068269,0.145805,1.375783,0.348169,-0.522237,-0.440949,-0.067492,-0.145289,-0.987085,0.021807,0.104182,0.111825,6.376874,-19.763449,-34.428520,,,,,,
1478365210.76,-0.076240,0.153048,1.364964,0.336453,-0.360852,-0.574971,-0.075276,-0.152452,-0.985440,-0.038890,0.101304,0.091138,6.240064,-19.965637,-34.336807,,,,,,
1478365210.78,-0.078277,0.164213,1.352467,0.530906,-0.111273,-0.622349,-0.077145,-0.163476,-0.983526,-0.010379,0.053964,0.119421,6.177977,-20.235701,-34.189625,,,,,,
1478365210.80,-0.079386,0.176377,1.339701,0.486090,-0.208645,-0.631756,-0.078073,-0.175464,-0.981385,0.006051,0.007358,0.172822,6.177977,-20.235701,-34.189625,,,,,,
1478365210.82,-0.084020,0.185025,1.326720,0.276366,-0.382462,-0.617945,-0.082489,-0.183971,-0.979464,0.026596,-0.001668,0.219531,6.474714,-20.817667,-33.782902,,,,,,
1478365210.85,-0.088447,0.190174,1.315204,0.166980,-0.246641,-0.500878,-0.086740,-0.189029,-0.978133,0.068627,-0.021420,0.246810,6.474714,-20.817667,-33.782902,,,,,,
1478365210.87,-0.090288,0.195872,1.307078,0.295477,-0.121913,-0.343934,-0.088441,-0.194622,-0.976883,0.074144,-0.054371,0.177078,6.511950,-20.927401,-33.707859,,,,,,
1478365210.89,-0.090901,0.205112,1.301668,0.445107,-0.049236,-0.269597,-0.088873,-0.203677,-0.974996,0.036932,-0.055311,0.206090,6.559921,-21.022442,-33.639347,,,,,,
1478365210.91,-0.090365,0.213938,1.296635,0.320302,-0.014559,-0.275052,-0.088185,-0.212310,-0.973215,0.043934,-0.048768,0.250040,6.680971,-21.410135,-33.369926,,,,,,
1478365210.93,-0.090190,0.217772,1.290765,0.069438,-0.064088,-0.282060,-0.087941,-0.216055,-0.972413,0.043690,-0.045023,0.249238,6.680971,-21.410135,-33.369926,,,,,,
1478365210.95,-0.090789,0.219566,1.285216,0.088277,-0.089120,-0.243625,-0.088487,-0.217806,-0.971972,0.049013,-0.072218,0.119098,6.879768,-21.582127,-33.218399,,,,,,
1478365210.97,-0.091393,0.222433,1.280662,0.093012,-0.071907,-0.205613,-0.089018,-0.220604,-0.971293,0.047880,-0.059441,0.158167,6.879768,-21.582127,-33.218399,,,,,,
1478365211.00,-0.093334,0.223241,1.277021,-0.013005,-0.162666,-0.127134,-0.090886,-0.221392,-0.970941,0.062138,-0.096312,0.168023,6.947373,-21.641546,-33.165627,,,,,,
1478365211.02,-0.097156,0.222537,1.275188,-0.047165,-0.212001,-0.061744,-0.094611,-0.220704,-0.970741,0.048927,-0.100615,0.180305,6.927171,-21.628588,-33.178307,,,,,,
1478365211.04,-0.099627,0.222532,1.274452,0.014173,-0.067758,-0.039813,-0.097010,-0.220700,-0.970505,0.010294,-0.095920,0.226639,6.774029,-21.579651,-33.241730,,,,,,
1478365211.06,-0.099389,0.221382,1.273923,-0.142359,0.053812,0.010106,-0.096804,-0.219578,-0.970780,0.014865,-0.103054,0.312028,6.774029,-21.579651,-33.241730,,,,,,
1478365211.08,-0.096829,0.212931,1.274327,-0.560298,0.176645,0.091807,-0.094495,-0.211325,-0.972837,0.065381,-0.054437,0.338072,6.805404,-21.363972,-33.374367,,,,,,
1478365211.10,-0.091327,0.197041,1.275980,-0.786261,0.337212,0.175487,-0.089435,-0.195769,-0.976563,0.070484,-0.027742,0.149415,6.805404,-21.363972,-33.374367,,,,,,
1478365211.12,-0.082986,0.181146,1.279223,-0.653101,0.449737,0.222426,-0.081535,-0.180156,-0.980253,0.062584,-0.043354,0.153104,7.003872,-20.628611,-33.793308,,,,,,
1478365211.15,-0.068278,0.183364,1.281855,-0.430554,0.396826,0.200843,-0.067081,-0.182339,-0.980945,0.022953,-0.053501,0.009174,7.166790,-20.268024,-33.976841,,,,,,
1478365211.17,-0.061109,0.173877,1.285885,-0.475311,0.368725,0.229224,-0.060150,-0.173002,-0.983083,0.060089,-0.029070,0.111913,7.722780,-20.237410,-33.873108,,,,,,
1478365211.19,-0.053822,0.162597,1.291178,-0.511771,0.394924,0.310305,-0.053087,-0.161882,-0.985381,0.080919,-0.026992,0.085586,7.722780,-20.237410,-33.873108,,,,,,
1478365211.21,-0.047034,0.151407,1.298135,-0.487056,0.350006,0.355041,-0.046479,-0.150830,-0.987467,0.046967,-0.017002,0.083292,8.064869,-19.527521,-34.208408,,,,,,
1478365211.23,-0.039453,0.142519,1.306337,-0.355051,0.474845,0.441087,-0.039043,-0.142037,-0.989091,0.044659,-0.051017,0.103440,8.064869,-19.527521,-34.208408,,,,,,
1478365211.25,-0.027376,0.132044,1.317434,-0.589180,0.727031,0.574551,-0.027134,-0.131661,-0.990923,0.071613,-0.005851,0.217867,8.279074,-19.182001,-34.352425,,,,,,
1478365211.27,-0.013179,0.115673,1.330801,-0.807023,0.691812,0.677206,-0.013091,-0.115415,-0.993231,0.067611,0.022047,-0.026590,8.710875,-18.657290,-34.534149,,,,,,
1478365211.30,-0.004015,0.100870,1.346358,-0.535183,0.379411,0.738120,-0.003995,-0.100699,-0.994909,-0.011081,-0.012628,-0.144801,8.846355,-18.321585,-34.679142,,,,,,
1478365211.32,-0.001050,0.097103,1.361909,0.019304,0.143655,0.716167,-0.001045,-0.096951,-0.995289,-0.014031,-0.016376,-0.144421,8.846355,-18.321585,-34.679142,,,,,,
1478365211.34,0.003385,0.096735,1.376969,-0.176036,0.375995,0.680477,0.003369,-0.096584,-0.995319,-0.006009,0.111888,0.334064,8.664577,-18.293427,-34.739849,,,,,,
1478365211.36,0.013489,0.085605,1.390344,-0.688179,0.596709,0.588419,0.013439,-0.085500,-0.996247,0.015629,0.128133,0.225358,8.664577,-18.293427,-34.739849,,,,,,
1478365211.38,0.025436,0.072985,1.402594,-0.433828,0.597986,0.556452,0.025365,-0.072921,-0.997015,0.005366,0.090407,-0.055765,8.879642,-17.908897,-34.885593,,,,,,
1478365211.40,0.033196,0.071690,1.414685,0.095828,0.201451,0.550177,0.033104,-0.071629,-0.996882,-0.024620,0.033238,-0.137548,9.162397,-17.682018,-34.928181,,,,,,
1478365211.42,0.029320,0.074137,1.426477,-0.026925,-0.227073,0.554348,0.029236,-0.074069,-0.996825,-0.024109,0.023669,0.064879,9.020946,-17.838440,-34.885441,,,,,,
1478365211.45,0.027100,0.063029,1.437074,-0.806350,0.070681,0.411788,0.027043,-0.062987,-0.997648,-0.013692,0.153091,0.372495,9.020946,-17.838440,-34.885441,,,,,,
1478365211.47,0.034896,0.043252,1.445205,-0.910876,0.542492,0.320189,0.034856,-0.043238,-0.998457,-0.030797,0.134211,-0.073367,8.684462,-17.112801,-35.331478,,,,,,
1478365211.49,0.047938,0.029844,1.451685,-0.466884,0.626160,0.265573,0.047898,-0.029839,-0.998406,-0.005356,0.116631,-0.171287,8.684462,-17.112801,-35.331478,,,,,,
1478365211.51,0.057887,0.023196,1.457931,-0.326913,0.372118,0.280429,0.057839,-0.023194,-0.998056,-0.015297,0.109986,-0.171637,9.216985,-16.465483,-35.503750,,,,,,
1478365211.53,0.064183,0.010604,1.463866,-0.789796,0.274012,0.220819,0.064136,-0.010604,-0.997885,-0.040332,0.125960,0.041021,9.503292,-16.058874,-35.614338,,,,,,
1478365211.55,0.073205,-0.010674,1.469971,-1.031023,0.552566,0.213322,0.073136,0.010674,-0.997265,-0.049653,0.129280,-0.100590,9.632473,-15.576553,-35.793404,,,,,,
1478365211.57,0.089272,-0.028692,1.474861,-0.731771,0.814829,0.120650,0.089116,0.028688,-0.995608,-0.060766,0.136153,-0.298612,9.632473,-15.576553,-35.793404,,,,,,
1478365211.60,0.105185,-0.040451,1.477594,-0.479893,0.652724,0.058386,0.104905,0.040440,-0.993660,-0.073960,0.085109,-0.345177,10.737216,-14.237913,-36.035751,,,,,,
1478365211.62,0.116012,-0.051485,1.479446,-0.578988,0.404857,0.022334,0.115598,0.051462,-0.991962,-0.051725,0.059240,-0.256314,10.737216,-14.237913,-36.035751,,,,,,
1478365211.64,0.122251,-0.064532,1.481437,-0.623852,0.233166,0.020431,0.121693,0.064487,-0.990471,-0.030903,0.040783,-0.252052,11.303516,-13.636341,-36.095181,,,,,,
1478365211.66,0.126276,-0.076327,1.483075,-0.527346,0.161686,-0.007742,0.125574,0.076253,-0.989149,0.004141,0.068049,-0.282488,11.560472,-12.954351,-36.264606,,,,,,
1478365211.68,0.129662,-0.086660,1.484369,-0.453160,0.149784,0.005041,0.128814,0.086552,-0.987884,0.021516,0.076778,-0.341629,11.653986,-12.654523,-36.340462,,,,,,
1478365211.70,0.132661,-0.093988,1.485179,-0.281261,0.118430,-0.023896,0.131688,0.093849,-0.986839,0.018642,0.069481,-0.342675,11.653986,-12.654523,-36.340462,,,,,,
1478365211.72,0.133202,-0.097550,1.484337,-0.084726,-0.034451,-0.091150,0.132177,0.097396,-0.986430,-0.003179,0.099641,-0.434682,11.820587,-12.202397,-36.441139,,,,,,
1478365211.74,0.129517,-0.096989,1.481560,0.105885,-0.247984,-0.143727,0.128548,0.096837,-0.986964,0.007408,0.067515,-0.424077,11.833906,-12.047335,-36.488377,,,,,,
,,,,,,,,,,,,,,,,37.354362,-122.024525,45.360260,0.000000,-1.000000,1478365307.00
1478365211.77,0.120071,-0.093942,1.477984,0.186944,-0.538552,-0.150979,0.119254,0.093804,-0.988423,0.020684,0.044395,-0.400738,11.714678,-12.082050,-36.515362,,,,,,
1478365211.79,0.105215,-0.089636,1.474463,0.243352,-0.727393,-0.127213,0.104600,0.089516,-0.990478,0.026687,0.058204,-0.373231,11.110929,-12.251541,-36.647350,,,,,,
1478365211.81,0.089986,-0.082363,1.470944,0.440042,-0.677298,-0.136165,0.089560,0.082269,-0.992578,0.009607,0.080191,-0.376746,10.714316,-12.394717,-36.717239,,,,,,
1478365211.83,0.076017,-0.069635,1.466717,0.726234,-0.619409,-0.147927,0.075760,0.069579,-0.994696,-0.012528,0.103166,-0.383860,10.714316,-12.394717,-36.717239,,,,,,
1478365211.85,0.063370,-0.050850,1.462324,0.968870,-0.551238,-0.133810,0.063246,0.050828,-0.996703,-0.017607,0.105743,-0.286241,10.002048,-12.986709,-36.713562,,,,,,
1478365211.87,0.051625,-0.028382,1.458047,1.091340,-0.552442,-0.134603,0.051581,0.028378,-0.998266,0.015206,0.092136,-0.205500,9.399719,-14.044745,-36.482483,,,,,,
1478365211.89,0.037803,-0.006103,1.455076,0.995882,-0.700260,-0.061870,0.037794,0.006103,-0.999267,0.028994,0.114411,-0.204499,9.104229,-14.658979,-36.315407,,,,,,
1478365211.92,0.022111,0.012984,1.453962,0.829841,-0.728465,-0.004518,0.022108,-0.012984,-0.999671,0.050707,0.107055,-0.004006,8.320710,-15.773510,-36.035309,,,,,,
1478365211.94,0.008405,0.027390,1.454210,0.560298,-0.554986,0.031605,0.008401,-0.027387,-0.999590,0.052435,0.146542,0.124666,7.911471,-16.220625,-35.928837,,,,,,
1478365211.96,0.001131,0.035102,1.453934,0.249616,-0.198797,-0.058464,0.001130,-0.035095,-0.999383,-0.007890,0.169754,0.198511,7.911471,-16.220625,-35.928837,,,,,,
1478365211.98,0.000437,0.037881,1.450706,0.087211,0.037164,-0.205979,0.000437,-0.037872,-0.999282,-0.031031,0.156235,0.136535,7.423724,-16.729078,-35.799545,,,,,,
1478365212.00,0.002642,0.040925,1.444969,0.199105,0.117984,-0.296536,0.002640,-0.040914,-0.999159,-0.022644,0.147206,0.007109,7.523393,-16.825478,-35.733501,,,,,,
1478365212.02,0.005973,0.048080,1.438801,0.435832,0.145314,-0.266560,0.005966,-0.048061,-0.998827,-0.014328,0.126034,-0.035613,7.666983,-16.904896,-35.665432,,,,,,
1478365212.04,0.001351,0.044639,1.433916,0.626496,0.022002,-0.236097,0.001349,-0.044625,-0.999003,-0.031714,0.080788,0.017191,7.946896,-17.364368,-35.382294,,,,,,
1478365212.07,-0.001472,0.056371,1.428647,0.443805,-0.215172,-0.254556,-0.001470,-0.056341,-0.998411,-0.048976,0.112463,0.111432,7.946896,-17.364368,-35.382294,,,,,,
1478365212.09,-0.007057,0.063874,1.421002,0.360059,-0.325438,-0.431285,-0.007042,-0.063830,-0.997936,-0.043403,0.119952,0.110958,7.701565,-17.353661,-35.441750,,,,,,
1478365212.11,-0.013914,0.073836,1.410262,0.522478,-0.406075,-0.537437,-0.013876,-0.073769,-0.997179,-0.075632,0.048791,0.034548,7.638840,-17.501293,-35.382683,,,,,,
1478365212.13,-0.024471,0.086356,1.398700,0.585956,-0.572630,-0.544150,-0.024377,-0.086249,-0.995975,-0.029654,0.035711,0.139759,7.477300,-17.935463,-35.199295,,,,,,
1478365212.15,-0.034978,0.097928,1.387255,0.463514,-0.528075,-0.547122,-0.034803,-0.097772,-0.994600,0.003172,0.020883,0.246538,7.315435,-18.198715,-35.098042,,,,,,
1478365212.17,-0.046856,0.105726,1.377080,0.277412,-0.647835,-0.436195,-0.046577,-0.105529,-0.993325,0.066917,-0.039597,0.264458,6.996309,-18.569401,-34.968704,,,,,,
1478365212.19,-0.059252,0.111373,1.369754,0.243363,-0.556099,-0.319709,-0.058851,-0.111142,-0.992060,0.058881,-0.069415,0.271952,6.996309,-18.569401,-34.968704,,,,,,
1478365212.22,-0.066688,0.116382,1.363431,0.188202,-0.278165,-0.314269,-0.066188,-0.116120,-0.991027,0.037257,-0.056976,0.311737,6.538267,-18.771616,-34.949371,,,,,,
1478365212.24,-0.069203,0.120560,1.357220,0.194228,-0.083848,-0.288852,-0.068646,-0.120268,-0.990365,0.059521,-0.100283,0.186807,6.437569,-18.855484,-34.922909,,,,,,
1478365212.26,-0.068528,0.126783,1.351873,0.302662,0.035121,-0.246180,-0.067925,-0.126443,-0.989646,0.095620,-0.096381,0.172263,6.492681,-19.017365,-34.824795,,,,,,
1478365212.28,-0.067781,0.132539,1.348024,0.213147,-0.028539,-0.175939,-0.067135,-0.132151,-0.988953,0.094830,-0.090673,0.171571,6.585468,-19.158798,-34.729721,,,,,,
1478365212.30,-0.070163,0.135095,1.345550,0.054110,-0.164610,-0.091263,-0.069467,-0.134684,-0.988451,0.075281,-0.113638,0.165636,6.622238,-19.331989,-34.626598,,,,,,
1478365212.32,-0.071853,0.137217,1.344314,0.153157,0.010193,-0.055052,-0.071116,-0.136787,-0.988045,0.041453,-0.117196,0.176582,6.622238,-19.331989,-34.626598,,,,,,
1478365212.34,-0.068540,0.142005,1.344107,0.227503,0.222370,-0.008489,-0.067797,-0.141529,-0.987610,0.032137,-0.107434,0.228729,6.581834,-19.434793,-34.576721,,,,,,
1478365212.37,-0.063730,0.144354,1.344394,0.011998,0.203386,0.017086,-0.063025,-0.143854,-0.987590,0.029044,-0.094824,0.284923,6.687420,-19.560951,-34.485199,,,,,,
1478365212.39,-0.060124,0.139869,1.345535,-0.325953,0.187956,0.104639,-0.059501,-0.139414,-0.988445,0.052436,-0.090857,0.319118,6.906088,-19.601091,-34.419247,,,,,,
1478365212.41,-0.054237,0.131638,1.348437,-0.368206,0.357869,0.184047,-0.053741,-0.131258,-0.989891,0.043243,-0.086333,0.237907,6.906088,-19.601091,-34.419247,,,,,,
1478365212.43,-0.045581,0.125145,1.352815,-0.256258,0.450803,0.224411,-0.045209,-0.124819,-0.991149,0.012281,-0.063048,0.128921,7.275362,-19.102058,-34.623138,,,,,,
1478365212.45,-0.036716,0.119651,1.358031,-0.252711,0.443231,0.275910,-0.036445,-0.119365,-0.992181,0.043113,-0.053807,0.169519,7.275362,-19.102058,-34.623138,,,,,,
1478365212.47,-0.029022,0.111887,1.364207,-0.409397,0.327049,0.312869,-0.028836,-0.111654,-0.993329,0.035504,-0.061518,0.170666,7.616273,-18.879038,-34.672115,,,,,,
1478365212.49,-0.026879,0.103755,1.370863,-0.308340,-0.000886,0.314735,-0.026731,-0.103569,-0.994263,-0.016771,-0.037788,0.000672,7.734248,-18.707336,-34.739002,,,,,,
1478365212.52,-0.029787,0.100715,1.376579,-0.038747,-0.086382,0.251496,-0.029632,-0.100545,-0.994491,-0.043916,-0.054530,0.120681,7.610023,-18.430849,-34.913788,,,,,,
1478365212.54,-0.028022,0.100800,1.381597,-0.003232,0.211783,0.222308,-0.027876,-0.100630,-0.994533,-0.033785,-0.025805,0.260372,7.610023,-18.430849,-34.913788,,,,,,
1478365212.56,-0.021934,0.096490,1.386655,-0.351709,0.331546,0.260366,-0.021830,-0.096340,-0.995109,0.042735,0.004574,0.315284,7.605158,-18.420610,-34.920254,,,,,,
1478365212.58,-0.015009,0.085186,1.391930,-0.575408,0.410565,0.242702,-0.014954,-0.085083,-0.996262,0.052842,0.035446,0.224747,7.605158,-18.420610,-34.920254,,,,,,
1478365212.60,0.000023,0.074368,1.396760,-0.427896,0.897106,0.212062,0.000023,-0.074300,-0.997236,0.047752,0.070470,0.163664,7.876948,-17.919552,-35.120148,,,,,,
1478365212.62,0.020237,0.068617,1.401537,-0.198263,0.864997,0.273820,0.020188,-0.068563,-0.997442,0.127929,-0.033976,0.034979,8.255535,-17.675930,-35.156635,,,,,,
1478365212.64,0.031771,0.063161,1.410497,-0.322138,0.418747,0.471364,0.031702,-0.063119,-0.997502,0.066992,0.005212,0.133428,9.080853,-17.460836,-35.060501,,,,,,
1478365212.67,0.040347,0.054256,1.421613,-0.499912,0.469973,0.500120,0.040277,-0.054229,-0.997716,0.058417,-0.003678,0.133641,9.080853,-17.460836,-35.060501,,,,,,
1478365212.69,0.051654,0.041334,1.431549,-0.700077,0.563794,0.399757,0.051587,-0.041323,-0.997813,0.021014,0.121569,0.089671,9.490591,-16.894602,-35.229000,,,,,,
,,,,,,,,,,,,,,,,37.354362,-122.024525,45.503387,0.000000,-1.000000,1478365308.00
1478365212.71,0.061378,0.026812,1.439977,-0.638978,0.396155,0.329353,0.061317,-0.026808,-0.997758,0.010003,0.101515,-0.077956,9.490591,-16.894602,-35.229000,,,,,,
1478365212.73,0.065264,0.017961,1.447818,-0.317685,0.077089,0.382877,0.065207,-0.017960,-0.997710,0.007684,0.018982,-0.102967,9.821390,-16.237526,-35.446640,,,,,,
1478365212.75,0.064531,0.011235,1.458031,-0.450815,-0.061720,0.470614,0.064482,-0.011235,-0.997856,0.001451,0.032323,0.095741,9.690664,-15.961509,-35.607620,,,,,,
1478365212.77,0.066224,-0.002919,1.467501,-0.815698,0.266592,0.345067,0.066175,0.002919,-0.997804,-0.054609,0.117748,0.195222,9.555038,-15.714534,-35.753826,,,,,,
1478365212.79,0.080973,-0.021656,1.474293,-0.876573,0.882959,0.208896,0.080866,0.021654,-0.996490,-0.072916,0.123854,0.131210,9.555038,-15.714534,-35.753826,,,,,,
1478365212.82,0.102971,-0.037203,1.480493,-0.669218,1.004664,0.253886,0.102718,0.037194,-0.994015,0.093037,0.112449,-0.330891,10.554924,-14.403562,-36.023777,,,,,,
1478365212.84,0.119972,-0.049286,1.488772,-0.611727,0.623670,0.369882,0.119539,0.049266,-0.991606,0.099974,0.131153,-0.344041,10.554924,-14.403562,-36.023777,,,,,,
1478365212.86,0.127968,-0.063314,1.499178,-0.774509,0.196727,0.398809,0.127363,0.063272,-0.989836,0.092150,0.117148,-0.345812,11.299429,-13.796886,-36.035400,,,,,,
1478365212.88,0.128451,-0.078730,1.507921,-0.686437,-0.097324,0.246097,0.127702,0.078649,-0.988689,-0.069382,0.117350,-0.523197,11.324751,-13.046792,-36.305820,,,,,,
1478365212.90,0.127218,-0.088073,1.511663,-0.321408,-0.034877,0.050159,0.126384,0.087960,-0.988074,-0.100856,0.099144,-0.507013,11.227819,-12.735748,-36.446098,,,,,,
1478365212.92,0.127257,-0.091369,1.512810,-0.085862,0.007403,0.042137,0.126384,0.091242,-0.987776,-0.054119,0.050726,-0.462526,11.227819,-12.735748,-36.446098,,,,,,
1478365212.94,0.127532,-0.092124,1.513896,-0.009316,0.020309,0.024325,0.126647,0.091994,-0.987673,-0.064300,0.075029,-0.398817,11.181017,-12.463696,-36.554375,,,,,,
1478365212.97,0.126873,-0.090955,1.512640,0.121287,-0.078544,-0.104561,0.126010,0.090830,-0.987862,-0.078967,0.119543,-0.425025,11.181017,-12.463696,-36.554375,,,,,,
1478365212.99,0.121601,-0.086063,1.507980,0.311853,-0.312945,-0.246430,0.120852,0.085957,-0.988942,-0.054995,0.114803,-0.450618,11.160088,-12.526836,-36.539188,,,,,,
1478365213.01,0.111289,-0.080636,1.500874,0.257532,-0.504215,-0.317046,0.110698,0.080549,-0.990585,0.040638,0.055376,-0.278886,10.853064,-12.778359,-36.544575,,,,,,
1478365213.03,0.099242,-0.077510,1.494546,0.138589,-0.549008,-0.247537,0.098782,0.077432,-0.992092,0.070194,0.048010,-0.315525,10.609701,-12.856543,-36.588589,,,,,,
1478365213.05,0.086514,-0.076093,1.489657,0.066722,-0.615239,-0.216038,0.086156,0.076020,-0.993377,0.082820,0.049422,-0.314240,10.609701,-12.856543,-36.588589,,,,,,
1478365213.07,0.069082,-0.075007,1.483950,0.087678,-0.923650,-0.290735,0.068833,0.074937,-0.994810,0.014190,0.101531,-0.513384,10.037746,-12.905366,-36.732498,,,,,,
1478365213.09,0.043527,-0.072177,1.476252,0.214590,-1.287586,-0.370178,0.043400,0.072114,-0.996452,-0.005497,0.082259,-0.517464,9.104027,-12.919971,-36.969883,,,,,,
1478365213.12,0.019295,-0.061978,1.467270,0.681169,-0.875931,-0.440889,0.019256,0.061939,-0.997894,-0.049255,0.088772,-0.391846,8.429202,-13.003546,-37.100372,,,,,,
1478365213.14,0.012473,-0.041788,1.457634,1.048041,0.069007,-0.409860,0.012462,0.041776,-0.999049,-0.003505,0.075595,-0.169133,7.742707,-13.766139,-36.974655,,,,,,
1478365213.16,0.023430,-0.021197,1.448895,0.867141,0.725809,-0.365367,0.023422,0.021195,-0.999501,0.003830,0.075393,0.023061,7.995065,-14.330150,-36.705681,,,,,,
1478365213.18,0.037617,-0.004628,1.442394,0.784595,0.492328,-0.250535,0.037608,0.004628,-0.999282,0.063878,0.213954,-0.003816,7.995065,-14.330150,-36.705681,,,,,,
1478365213.20,0.037809,0.013083,1.438080,1.080868,-0.289774,-0.137846,0.037796,-0.013083,-0.999200,0.035858,0.217902,-0.009391,8.926413,-15.207355,-36.133595,,,,,,
1478365213.22,0.026689,0.036664,1.432956,1.061785,-0.601463,-0.234294,0.026668,-0.036656,-0.998972,0.028767,0.165257,0.211039,8.842907,-16.234230,-35.704819,,,,,,
1478365213.24,0.014109,0.055261,1.426896,0.745002,-0.593309,-0.273571,0.014087,-0.055233,-0.998374,0.041348,0.183834,0.210441,8.566105,-16.804903,-35.507725,,,,,,
1478365213.27,0.002142,0.069290,1.420830,0.655528,-0.552782,-0.281880,0.002137,-0.069235,-0.997598,0.008117,0.076483,0.208734,8.044068,-17.579487,-35.253876,,,,,,
